{"type":"FeatureCollection","name":"Spielplatz_Punkte","features":[{"type":"Feature","properties":{"osm_id":24692737,"beschränkung":"Kostenfrei","access":"yes","leisure":"playground","name":null,"website":null,"wheelchair":null,"opening_hours":null,"note":null,"source:geometry":null,"ref":null,"operator":null,"description":null,"max_age":null,"surface":null},"geometry":{"type":"Point","coordinates":[8.805521295939434,49.386296592545406]}},{"type":"Feature","properties":{"osm_id":24717422,"beschränkung":"Kostenfrei","access":"yes","leisure":"playground","name":"Generationengarten","website":"http://wiesenbacher-tal.de/index.php","wheelchair":null,"opening_hours":null,"note":null,"source:geometry":null,"ref":null,"operator":null,"description":null,"max_age":null,"surface":null},"geometry":{"type":"Point","coordinates":[8.803481499210456,49.37994300626107]}},{"type":"Feature","properties":{"osm_id":24717427,"beschränkung":"Kostenfrei","access":"yes","leisure":"playground","name":null,"website":null,"wheelchair":"no","opening_hours":null,"note":null,"source:geometry":null,"ref":null,"operator":null,"description":null,"max_age":null,"surface":null},"geometry":{"type":"Point","coordinates":[8.804682046344979,49.38204394271809]}},{"type":"Feature","properties":{"osm_id":25048479,"beschränkung":"Kostenfrei","access":null,"leisure":"playground","name":"Ziegelhütte-Leinpfad","website":null,"wheelchair":null,"opening_hours":"08:00-13:00,15:00-20:00","note":null,"source:geometry":null,"ref":null,"operator":null,"description":null,"max_age":null,"surface":null},"geometry":{"type":"Point","coordinates":[8.786818682493154,49.3949854372841]}},{"type":"Feature","properties":{"osm_id":25057688,"beschränkung":"Kostenfrei","access":"yes","leisure":"playground","name":"Reichensteinstraße 40","website":null,"wheelchair":null,"opening_hours":null,"note":null,"source:geometry":null,"ref":null,"operator":null,"description":null,"max_age":null,"surface":null},"geometry":{"type":"Point","coordinates":[8.799981694152779,49.386146835228296]}},{"type":"Feature","properties":{"osm_id":25099700,"beschränkung":"Kostenfrei","access":"yes","leisure":"playground","name":"Menzerpark Dilsberger Straße","website":null,"wheelchair":"yes","opening_hours":"08:00-13:00,15:00-20:00","note":null,"source:geometry":null,"ref":null,"operator":null,"description":null,"max_age":null,"surface":null},"geometry":{"type":"Point","coordinates":[8.801722337702365,49.39342531006591]}},{"type":"Feature","properties":{"osm_id":28286151,"beschränkung":"Kostenfrei","access":null,"leisure":"playground","name":null,"website":null,"wheelchair":null,"opening_hours":null,"note":null,"source:geometry":null,"ref":null,"operator":null,"description":null,"max_age":null,"surface":null},"geometry":{"type":"Point","coordinates":[8.842177118130893,49.39201755533768]}},{"type":"Feature","properties":{"osm_id":35898984,"beschränkung":"Zahlungspflichtig","access":"customers","leisure":"playground","name":null,"website":null,"wheelchair":"yes","opening_hours":null,"note":null,"source:geometry":null,"ref":null,"operator":null,"description":null,"max_age":null,"surface":null},"geometry":{"type":"Point","coordinates":[8.80898911443494,49.39383921733215]}},{"type":"Feature","properties":{"osm_id":47083957,"beschränkung":"Kostenfrei","access":null,"leisure":"playground","name":"Unterer Eulenscheich 21","website":null,"wheelchair":null,"opening_hours":null,"note":"\"Unterer\" mit einem \"r\" am Ende steht wirklich so auf dem Schild.","source:geometry":"HiRes aerial imagery","ref":null,"operator":null,"description":null,"max_age":null,"surface":null},"geometry":{"type":"Point","coordinates":[8.765769676961803,49.376622647456074]}},{"type":"Feature","properties":{"osm_id":59110627,"beschränkung":"Kostenfrei","access":"yes","leisure":"playground","name":"Mühlgasse 18","website":null,"wheelchair":null,"opening_hours":null,"note":null,"source:geometry":null,"ref":null,"operator":null,"description":null,"max_age":null,"surface":null},"geometry":{"type":"Point","coordinates":[8.798101471427149,49.391539359343106]}},{"type":"Feature","properties":{"osm_id":87320865,"beschränkung":"Kostenfrei","access":null,"leisure":"playground","name":"Schulstraße 26","website":null,"wheelchair":null,"opening_hours":null,"note":null,"source:geometry":"HiRes aerial imagery","ref":null,"operator":null,"description":null,"max_age":null,"surface":null},"geometry":{"type":"Point","coordinates":[8.772786329192904,49.375540972280845]}},{"type":"Feature","properties":{"osm_id":123592659,"beschränkung":"Kostenfrei","access":null,"leisure":"playground","name":null,"website":null,"wheelchair":"no","opening_hours":null,"note":null,"source:geometry":null,"ref":null,"operator":null,"description":null,"max_age":null,"surface":null},"geometry":{"type":"Point","coordinates":[8.804187600676228,49.39165366642058]}},{"type":"Feature","properties":{"osm_id":124143845,"beschränkung":"Kostenfrei","access":null,"leisure":"playground","name":null,"website":null,"wheelchair":null,"opening_hours":null,"note":null,"source:geometry":null,"ref":null,"operator":null,"description":null,"max_age":null,"surface":null},"geometry":{"type":"Point","coordinates":[8.79395210154737,49.39265127479453]}},{"type":"Feature","properties":{"osm_id":124283504,"beschränkung":"Kostenfrei","access":null,"leisure":"playground","name":null,"website":null,"wheelchair":null,"opening_hours":null,"note":null,"source:geometry":null,"ref":null,"operator":null,"description":null,"max_age":null,"surface":null},"geometry":{"type":"Point","coordinates":[8.784340189812342,49.39169962510471]}},{"type":"Feature","properties":{"osm_id":126245221,"beschränkung":"Kostenfrei","access":"yes","leisure":"playground","name":null,"website":null,"wheelchair":null,"opening_hours":null,"note":null,"source:geometry":null,"ref":null,"operator":null,"description":null,"max_age":null,"surface":null},"geometry":{"type":"Point","coordinates":[8.838962694630263,49.39732261132556]}},{"type":"Feature","properties":{"osm_id":179156832,"beschränkung":"Kostenfrei","access":null,"leisure":"playground","name":null,"website":null,"wheelchair":null,"opening_hours":null,"note":null,"source:geometry":null,"ref":"Kraichgaustraße 1/1","operator":null,"description":null,"max_age":null,"surface":null},"geometry":{"type":"Point","coordinates":[8.80438180754284,49.39988487105545]}},{"type":"Feature","properties":{"osm_id":219968524,"beschränkung":"Kostenfrei","access":null,"leisure":"playground","name":"Dilsbergerhof am Friedhof","website":null,"wheelchair":null,"opening_hours":null,"note":null,"source:geometry":"HiRes aerial imagery","ref":null,"operator":null,"description":null,"max_age":null,"surface":null},"geometry":{"type":"Point","coordinates":[8.839988052210188,49.38059391131235]}},{"type":"Feature","properties":{"osm_id":391813740,"beschränkung":"Kostenfrei","access":null,"leisure":"playground","name":"Hanna-Weis-Platz","website":null,"wheelchair":null,"opening_hours":null,"note":null,"source:geometry":null,"ref":null,"operator":"Stadt Neckargemünd","description":null,"max_age":null,"surface":null},"geometry":{"type":"Point","coordinates":[8.80515753441396,49.39777384589689]}},{"type":"Feature","properties":{"osm_id":865607273,"beschränkung":"Kostenfrei","access":null,"leisure":"playground","name":null,"website":null,"wheelchair":null,"opening_hours":null,"note":null,"source:geometry":null,"ref":null,"operator":null,"description":null,"max_age":null,"surface":null},"geometry":{"type":"Point","coordinates":[8.855525705678108,49.38769446370469]}},{"type":"Feature","properties":{"osm_id":1531391217,"beschränkung":"Kostenfrei","access":null,"leisure":"playground","name":null,"website":null,"wheelchair":null,"opening_hours":null,"note":null,"source:geometry":null,"ref":null,"operator":null,"description":"Das Spielen auf dem Schulhof ist für Kinder bis 14 Jahre von Montag bis Freitag 14.30 bis 18.30 erlaubt.","max_age":"14","surface":"asphalt"},"geometry":{"type":"Point","coordinates":[8.793912651373407,49.3930968539758]}}]}